{
  "teams": [
    {
      "team_id": "ATL",
      "team_name": "Atlanta United",
      "stadium": "Mercedes-Benz Stadium",
      "city": "Atlanta, GA",
      "latitude": 33.7555,
      "longitude": -84.4008,
      "timezone": "US/Eastern",
      "roofed": true,
      "roof_type": "retractable"
    },
    {
      "team_id": "CHI",
      "team_name": "Chicago Fire FC",
      "stadium": "Soldier Field",
      "city": "Chicago, IL",
      "latitude": 41.8625,
      "longitude": -87.6170,
      "timezone": "US/Central",
      "roofed": false,
      "roof_type": "open"
    },
    {
      "team_id": "LAFC",
      "team_name": "Los Angeles FC",
      "stadium": "BMO Stadium",
      "city": "Los Angeles, CA",
      "latitude": 34.0134,
      "longitude": -118.2384,
      "timezone": "US/Pacific",
      "roofed": false,
      "roof_type": "open"
    },
    {
      "team_id": "LA",
      "team_name": "LA Galaxy",
      "stadium": "Dignity Health Sports Park",
      "city": "Carson, CA",
      "latitude": 33.8608,
      "longitude": -118.1350,
      "timezone": "US/Pacific",
      "roofed": false,
      "roof_type": "open"
    },
    {
      "team_id": "NYC",
      "team_name": "New York City FC",
      "stadium": "Yankee Stadium",
      "city": "New York, NY",
      "latitude": 40.8296,
      "longitude": -73.9262,
      "timezone": "US/Eastern",
      "roofed": false,
      "roof_type": "open"
    },
    {
      "team_id": "NYCFC",
      "team_name": "New York Red Bulls",
      "stadium": "Red Bull Arena",
      "city": "Harrison, NJ",
      "latitude": 40.7352,
      "longitude": -74.0776,
      "timezone": "US/Eastern",
      "roofed": false,
      "roof_type": "open"
    },
    {
      "team_id": "DC",
      "team_name": "D.C. United",
      "stadium": "Audi Field",
      "city": "Washington, DC",
      "latitude": 38.8045,
      "longitude": -77.0255,
      "timezone": "US/Eastern",
      "roofed": false,
      "roof_type": "open"
    },
    {
      "team_id": "HOU",
      "team_name": "Houston Dynamo FC",
      "stadium": "Shell Energy Stadium",
      "city": "Houston, TX",
      "latitude": 29.7575,
      "longitude": -95.3613,
      "timezone": "US/Central",
      "roofed": true,
      "roof_type": "retractable"
    },
    {
      "team_id": "DAL",
      "team_name": "FC Dallas",
      "stadium": "Toyota Stadium",
      "city": "Frisco, TX",
      "latitude": 33.2076,
      "longitude": -96.8364,
      "timezone": "US/Central",
      "roofed": false,
      "roof_type": "open"
    },
    {
      "team_id": "SKC",
      "team_name": "Sporting Kansas City",
      "stadium": "Children's Mercy Park",
      "city": "Kansas City, KS",
      "latitude": 39.0487,
      "longitude": -94.4808,
      "timezone": "US/Central",
      "roofed": false,
      "roof_type": "open"
    },
    {
      "team_id": "RSL",
      "team_name": "Real Salt Lake",
      "stadium": "America First Field",
      "city": "Salt Lake City, UT",
      "latitude": 40.6265,
      "longitude": -111.2710,
      "timezone": "US/Mountain",
      "roofed": false,
      "roof_type": "open"
    },
    {
      "team_id": "SEA",
      "team_name": "Seattle Sounders FC",
      "stadium": "Lumen Field",
      "city": "Seattle, WA",
      "latitude": 47.5952,
      "longitude": -122.3316,
      "timezone": "US/Pacific",
      "roofed": false,
      "roof_type": "open"
    },
    {
      "team_id": "POR",
      "team_name": "Portland Timbers",
      "stadium": "Providence Park",
      "city": "Portland, OR",
      "latitude": 45.5850,
      "longitude": -122.7282,
      "timezone": "US/Pacific",
      "roofed": false,
      "roof_type": "open"
    },
    {
      "team_id": "VAN",
      "team_name": "Vancouver Whitecaps FC",
      "stadium": "BC Place Stadium",
      "city": "Vancouver, BC",
      "latitude": 49.2768,
      "longitude": -123.1113,
      "timezone": "America/Vancouver",
      "roofed": true,
      "roof_type": "retractable"
    },
    {
      "team_id": "TOR",
      "team_name": "Toronto FC",
      "stadium": "BMO Field",
      "city": "Toronto, ON",
      "latitude": 43.6629,
      "longitude": -79.3957,
      "timezone": "US/Eastern",
      "roofed": false,
      "roof_type": "open"
    },
    {
      "team_id": "MTL",
      "team_name": "CF Montréal",
      "stadium": "Saputo Stadium",
      "city": "Montreal, QC",
      "latitude": 45.4917,
      "longitude": -73.5519,
      "timezone": "US/Eastern",
      "roofed": false,
      "roof_type": "open"
    },
    {
      "team_id": "LAFC",
      "team_name": "Los Angeles FC",
      "stadium": "BMO Stadium",
      "city": "Los Angeles, CA",
      "latitude": 34.0134,
      "longitude": -118.2384,
      "timezone": "US/Pacific",
      "roofed": false,
      "roof_type": "open"
    },
    {
      "team_id": "SJ",
      "team_name": "San Jose Earthquakes",
      "stadium": "PayPal Park",
      "city": "San Jose, CA",
      "latitude": 37.3382,
      "longitude": -121.9327,
      "timezone": "US/Pacific",
      "roofed": false,
      "roof_type": "open"
    },
    {
      "team_id": "VEG",
      "team_name": "Las Vegas Lights FC",
      "stadium": "Allegiant Stadium",
      "city": "Las Vegas, NV",
      "latitude": 36.0896,
      "longitude": -115.1839,
      "timezone": "US/Pacific",
      "roofed": true,
      "roof_type": "retractable"
    },
    {
      "team_id": "MIN",
      "team_name": "Minnesota United FC",
      "stadium": "Allianz Field",
      "city": "Minneapolis, MN",
      "latitude": 44.9429,
      "longitude": -93.2788,
      "timezone": "US/Central",
      "roofed": false,
      "roof_type": "open"
    },
    {
      "team_id": "PHI",
      "team_name": "Philadelphia Union",
      "stadium": "Subaru Park",
      "city": "Chester, PA",
      "latitude": 39.8581,
      "longitude": -75.3553,
      "timezone": "US/Eastern",
      "roofed": false,
      "roof_type": "open"
    },
    {
      "team_id": "NE",
      "team_name": "New England Revolution",
      "stadium": "Gillette Stadium",
      "city": "Foxborough, MA",
      "latitude": 42.0909,
      "longitude": -71.2643,
      "timezone": "US/Eastern",
      "roofed": false,
      "roof_type": "open"
    },
    {
      "team_id": "NYC2",
      "team_name": "New York Red Bulls II",
      "stadium": "Red Bull Arena",
      "city": "Harrison, NJ",
      "latitude": 40.7352,
      "longitude": -74.0776,
      "timezone": "US/Eastern",
      "roofed": false,
      "roof_type": "open"
    },
    {
      "team_id": "ORL",
      "team_name": "Orlando City SC",
      "stadium": "Inter&Co Stadium",
      "city": "Orlando, FL",
      "latitude": 28.5421,
      "longitude": -81.3888,
      "timezone": "US/Eastern",
      "roofed": false,
      "roof_type": "open"
    },
    {
      "team_id": "MIA",
      "team_name": "Inter Miami CF",
      "stadium": "DRV PNK Stadium",
      "city": "Fort Lauderdale, FL",
      "latitude": 26.0544,
      "longitude": -80.2383,
      "timezone": "US/Eastern",
      "roofed": false,
      "roof_type": "open"
    },
    {
      "team_id": "CLB",
      "team_name": "Columbus Crew",
      "stadium": "Lower.com Field",
      "city": "Columbus, OH",
      "latitude": 39.9612,
      "longitude": -82.9988,
      "timezone": "US/Eastern",
      "roofed": false,
      "roof_type": "open"
    },
    {
      "team_id": "DEN",
      "team_name": "Colorado Rapids",
      "stadium": "Dick's Sporting Goods Park",
      "city": "Commerce City, CO",
      "latitude": 39.7439,
      "longitude": -104.8859,
      "timezone": "US/Mountain",
      "roofed": false,
      "roof_type": "open"
    },
    {
      "team_id": "AUS",
      "team_name": "Austin FC",
      "stadium": "Q2 Stadium",
      "city": "Austin, TX",
      "latitude": 30.3860,
      "longitude": -97.7677,
      "timezone": "US/Central",
      "roofed": false,
      "roof_type": "open"
    },
    {
      "team_id": "STL",
      "team_name": "St. Louis City SC",
      "stadium": "CityPark",
      "city": "St. Louis, MO",
      "latitude": 38.6270,
      "longitude": -90.1994,
      "timezone": "US/Central",
      "roofed": false,
      "roof_type": "open"
    },
    {
      "team_id": "COL",
      "team_name": "Colorado Rapids",
      "stadium": "Dick's Sporting Goods Park",
      "city": "Commerce City, CO",
      "latitude": 39.7439,
      "longitude": -104.8859,
      "timezone": "US/Mountain",
      "roofed": false,
      "roof_type": "open"
    }
  ]
}
